{"type":"FeatureCollection","features":[{"id":"cc934eddd154e7b1300b933ad9dfb690","type":"Feature","properties":{"postcode":"05901","place":"Averill","district":"Essex County","region":"Vermont","country":"United States","place_name":"2079 Forest Lake Road, Averill, Vermont 05901, United States"},"geometry":{"coordinates":[[[-73.49867112499967,45.36432705873594],[-69.63148362500012,45.22521528527713],[-71.91663987500006,44.35196312097605],[-73.49867112499967,45.36432705873594]]],"type":"Polygon"}},{"id":"b7bfa8c2e5d07fe3aab5d3cdde11d025","type":"Feature","properties":{"postcode":"J0B 1G0","place":"Dudswell","district":"Le Haut-Saint-Fran√ßois Regional County Municipality","region":"Quebec","country":"Canada","place_name":"Rue Gilbert, Dudswell, Quebec J0B 1G0, Canada"},"geometry":{"coordinates":[[-74.02601487500007,45.30254173361544],[-71.52113206249976,46.19183278438621],[-69.23597581249982,45.19425521456367]],"type":"LineString"}},{"id":"d666dc5d25ffdd146ae036aae6130557","type":"Feature","properties":{"postcode":"04963","place":"Oakland","district":"Kennebec County","region":"Maine","country":"United States","place_name":"1078 Kennedy Memorial Drive, Oakland, Maine 04963, United States"},"geometry":{"coordinates":[[[-71.2135148749997,44.22613436795851],[-69.17005784375004,44.914856209408384],[-68.75257737499977,44.493198239731555],[-71.2135148749997,44.22613436795851]]],"type":"Polygon"}},{"id":"fb434b0def707e5e56414b856fb1513a","type":"Feature","properties":{"locality":"Ellenburg","place":"Ellenburg Depot","district":"Clinton County","region":"New York","country":"United States","place_name":"Ellenburg Depot, New York 12935, United States"},"geometry":{"coordinates":[[[-72.64173753124982,44.35196312097605],[-73.89417893749997,45.163278291422984],[-74.81703050000014,44.88372761167173],[-72.64173753124982,44.35196312097605]]],"type":"Polygon"}}]}